,City,Country,Max Temp,Current Description,Lat,Lng,Hotel Name
2,Makakilo City,US,86.32,scattered clouds,21.3469,-158.0858,Marriott's Ko Olina Beach Club
5,Matamoros,MX,93.31,broken clouds,25.5333,-103.25,Quinta Belem
6,Pandan,PH,83.71,overcast clouds,14.0453,124.1694,Bonifacio Lodge
7,Atuona,PF,76.78,few clouds,-9.8,-139.0333,Hôtel Hiva Oa Hanakee Lodge
11,San Patricio,US,90.54,overcast clouds,28.017,-97.5169,"Motel 6 Sinton, TX"
12,Fort Saint James,CA,85.84,few clouds,54.4333,-124.25,The View Hotel
14,Saint George,US,94.24,few clouds,37.1041,-113.5841,Best Western Plus Abbey Inn
15,Porto Santo,PT,70.18,broken clouds,33.072,-16.3415,Hotel Porto Santo & Spa
17,High Level,CA,87.91,broken clouds,58.5169,-117.136,Days Inn by Wyndham High Level
18,Nikolskoye,RU,64.29,clear sky,59.7035,30.7861,Tourist House - Sablino
19,Nemuro,JP,65.61,overcast clouds,43.3236,145.575,Hotel Nemuro Kaiyoutei
21,Touros,BR,75.61,few clouds,-5.1989,-35.4608,INN NEW HORIZON
22,Hasaki,JP,81.28,overcast clouds,35.7333,140.8333,Inubosaki Kanko Hotel
23,Subate,LV,61.14,broken clouds,56.0062,25.9076,усадьба Казимирвалес | Kazimirvāles muiža
25,Rikitea,PF,72.55,broken clouds,-23.1203,-134.9692,People ThankYou
31,Linxia,CN,64.29,broken clouds,35.6003,103.2064,GreenTree Inn Linxia Autonomous Prefecture Linxia Oxford River Avenue Express Hotel
32,Conde,BR,72.86,clear sky,-7.2597,-34.9075,Pousada Beija Flor
33,Kuching,MY,77.22,few clouds,1.55,110.3333,Hilton Kuching
34,Sitka,US,64.29,scattered clouds,57.0531,-135.33,Westmark Sitka
35,Vaini,TO,75.36,few clouds,-21.2,-175.2,Keleti Beach Resort
36,Camacha,PT,67.42,broken clouds,33.0833,-16.3333,Hotel Porto Santo & Spa
37,Alofi,NU,75.09,few clouds,-19.0595,-169.9187,Taloa Heights
40,Dodge City,US,87.24,clear sky,37.7528,-100.0171,Windsor Inn & Suites
42,Padang,ID,73.45,overcast clouds,-0.9492,100.3543,Mercure Padang
45,Manavalakurichi,IN,77.31,overcast clouds,8.1333,77.3,Jebinrio home
46,Pasaje,EC,73.11,broken clouds,-3.3333,-79.8167,Finca Huaylala
47,Gat,IL,77.4,clear sky,31.61,34.7642,OlusHome
49,Nouadhibou,MR,73.38,broken clouds,20.931,-17.0347,El Medina
51,Jamestown,US,80.24,clear sky,42.097,-79.2353,Hampton Inn & Suites Jamestown
52,Comodoro Rivadavia,AR,60.66,clear sky,-45.8667,-67.5,Austral Hotel
54,Cabatuan,PH,80.49,broken clouds,10.8794,122.486,MVC Transient Room
55,Ornskoldsvik,SE,61.75,fog,63.2909,18.7153,ファーストホテル スタット
57,Soe,ID,68.9,clear sky,-9.8607,124.284,Dena Hotel
59,Biak,ID,77.47,overcast clouds,-0.9131,122.8766,Penginapan Kim
60,Bethalto,US,86.09,scattered clouds,38.9092,-90.0407,Town & Country Lakes
61,Boa Viagem,BR,79.83,broken clouds,-5.1275,-39.7322,Inn and Steakhouse Aconchego
62,Haradok,BY,64.51,broken clouds,55.4624,29.9816,Sportivnyy Gorodok
63,Yuzhno-Kurilsk,RU,64.44,overcast clouds,44.0306,145.8556,Guesthouse Berloga
65,Guerrero Negro,MX,76.5,broken clouds,27.9769,-114.0611,"Casa Laguna, Bed & Breakfast"
66,Ribeira Grande,PT,72.23,clear sky,38.5167,-28.7,Quinta da Meia Eira
67,Grand Gaube,MU,72.0,clear sky,-20.0064,57.6608,Veranda Paul et Virginie Hotel & Spa
71,Ambanja,MG,71.24,light rain,-13.6833,48.45,Hotel Salama and Fast Food
74,Okitipupa,NG,71.65,light rain,6.5047,4.7839,Coastal Hotel & Suites
75,Faanui,PF,79.02,overcast clouds,-16.4833,-151.75,Bora-Bora Pearl Beach Resort & Spa
76,Ponta Delgada,PT,70.52,scattered clouds,37.7333,-25.6667,Vila Nova Hotel
79,Altamira,BR,79.92,overcast clouds,-3.2033,-52.2064,Requinte Hotel
80,Bitung,ID,85.05,broken clouds,1.4451,125.1824,K2 Lembeh
81,Hilo,US,87.28,overcast clouds,19.7297,-155.09,Hilo Hawaiian Hotel
82,Paraiso,CR,72.46,broken clouds,9.8383,-83.8656,Hotel Rinconcito Verde
83,Flin Flon,CA,80.92,clear sky,54.7682,-101.865,Victoria Inn Flin Flon
84,Bardiyah,LY,78.6,clear sky,31.7561,25.0865,بورتو بردية
85,Kapaa,US,85.98,broken clouds,22.0752,-159.319,Sheraton Kauai Coconut Beach Resort
86,Bambous Virieux,MU,71.85,scattered clouds,-20.3428,57.7575,Casa Tia Villa
89,Carnarvon,AU,64.74,scattered clouds,-24.8667,113.6333,Hospitality Carnarvon
90,Arraial Do Cabo,BR,64.9,overcast clouds,-22.9661,-42.0278,Pousada Porto Praia
92,Parakou,BJ,69.49,overcast clouds,9.3372,2.6303,Benin Metropole Hotel
93,Coolum Beach,AU,70.34,clear sky,-26.5333,153.1,Coolum Beach Resort
95,Carlisle,US,83.62,broken clouds,40.2015,-77.1889,Fairfield Inn & Suites by Marriott Carlisle
97,Tyler,US,89.65,clear sky,32.3513,-95.3011,Quality Inn Tyler - Lindale
98,San Pedro,PH,81.63,moderate rain,14.35,121.0167,Palines Apartment and Guesthouse
103,Douentza,ML,74.89,light rain,14.9951,-2.9517,Ogomono Doumbo
104,La Reforma,MX,85.73,scattered clouds,25.0833,-108.05,Hotel Reforma
105,Avarua,CK,75.25,clear sky,-21.2078,-159.775,Paradise Inn
108,Xinzhou,CN,68.92,scattered clouds,38.4092,112.7333,Shell Hotel - Xinzhou
109,Am Timan,TD,71.19,overcast clouds,11.0297,20.2827,Palais du chef Canton Salamt
110,Sakaiminato,JP,84.18,broken clouds,35.55,133.2333,Italian pasley
112,Bethel,US,82.54,broken clouds,41.3712,-73.414,Courtyard by Marriott Danbury
113,Pacific Grove,US,79.02,broken clouds,36.6177,-121.9166,Lovers Point Inn
118,Bivolari,RO,73.2,light rain,47.5333,27.4333,epure elena catalina
120,Bengkulu,ID,75.67,overcast clouds,-3.8004,102.2655,Grage Hotel Bengkulu
122,Kiunga,PG,74.34,overcast clouds,-6.1219,141.2906,Airport Lodge Kiunga
126,Gusau,NG,71.82,light rain,12.1628,6.6614,GUEST INN
127,Sept-Iles,CA,73.92,broken clouds,50.2001,-66.3821,Comfort Inn
128,Lagoa,PT,71.1,clear sky,39.05,-27.9833,Casa Das Faias
129,Komsomolskiy,UZ,74.12,clear sky,40.4272,71.7189,Ikathouse
130,Buala,SB,82.9,light rain,-8.145,159.5921,Maringe Lagoon Lodge
131,Musoma,TZ,71.71,scattered clouds,-1.5,33.8,New Peninsula Hotel
133,Barcelos,PT,75.69,clear sky,41.5388,-8.6151,Hotel Restaurante Bagoeira
134,Vieste,IT,74.66,overcast clouds,41.8825,16.175,Hotel Falcone
135,Hamilton,US,83.25,scattered clouds,39.1834,-84.5333,Six Acres Bed & Breakfast
138,San Isidro,PE,66.02,overcast clouds,-12.1167,-77.05,Radisson Hotel Decapolis Miraflores
139,Miracema Do Tocantins,BR,81.27,clear sky,-9.5618,-48.3967,Miami Apart Hotel
140,Praia,CV,79.34,broken clouds,14.9215,-23.5087,LT Aparthotel
142,Salalah,OM,75.29,mist,17.0151,54.0924,"HAMDAN PLAZA HOTEL SALALAH, an HTG Hotel"
143,Vao,NC,68.97,few clouds,-22.6667,167.4833,Hotel Kou-Bugny
144,Bodden Town,KY,86.94,few clouds,19.2833,-81.25,Will T Place
145,Beeville,US,91.29,clear sky,28.4008,-97.7483,"Holiday Inn Express & Suites Beeville, an IHG Hotel"
146,Kalpi,IN,85.35,heavy intensity rain,26.1167,79.7333,DRx. Bablu yadav
147,Sao Joao Da Barra,BR,66.79,overcast clouds,-21.6403,-41.0511,Pousada Porto De Canoas
148,Price,US,67.26,overcast clouds,39.5994,-110.8107,National 9 - Price River Inn
149,Mehamn,NO,64.31,overcast clouds,71.0357,27.8492,Mehamn Arctic Hotel AS
151,West Bay,KY,87.01,few clouds,19.3667,-81.4167,Calypso Cove
152,Broome,US,78.21,scattered clouds,42.2506,-75.833,Chenango Valley State Park
153,Butaritari,KI,81.07,clear sky,3.0707,172.7902,Isles Sunset Lodge
154,Acapulco,MX,85.82,scattered clouds,16.8634,-99.8901,HS Hotsson Smart Acapulco
155,Totness,SR,79.2,overcast clouds,5.8833,-56.3167,STAATS LOGEERGEBOUW TOTNESS
156,Maningrida,AU,75.96,few clouds,-12.0667,134.2667,Dhukurrdji Lodge
159,Port Moresby,PG,76.42,haze,-9.4431,147.1797,Lamana Hotel (Port Moresby)
161,Ambilobe,MG,63.64,clear sky,-13.2,49.05,Hôtel & Restaurant DIANA Ambilobe
162,Letpadan,MM,76.42,overcast clouds,17.7833,95.75,AUNG MYO KYAW
163,Kati,ML,76.41,broken clouds,12.7441,-8.0726,Lingot d’or
164,Georgetown,MY,80.89,few clouds,5.4112,100.3354,Cititel Penang
166,Bhadrachalam,IN,76.69,overcast clouds,17.6667,80.8833,Hotel Srinidhi Residency
167,California City,US,104.16,clear sky,35.1258,-117.9859,Best Western California City Inn & Suites
168,Souillac,MU,71.98,scattered clouds,-20.5167,57.5167,Shanti Maurice Resort & Spa
169,Huarmey,PE,62.47,clear sky,-10.0681,-78.1522,Hotel Miramar
170,Saint-Philippe,RE,66.22,scattered clouds,-21.3585,55.7679,Le four à pain
174,Lompoc,US,73.85,mist,34.6391,-120.4579,"Holiday Inn Express Lompoc, an IHG Hotel"
175,Jurmala,LV,71.62,clear sky,56.968,23.7704,Baltic Beach Hotel & SPA
176,Kloulklubed,PW,79.3,scattered clouds,7.0419,134.2556,Storyboard Beach Resort
177,Dedougou,BF,70.86,light rain,12.4667,-3.4667,Hôtel Bon Séjour
178,Cherskiy,RU,64.99,clear sky,68.75,161.3,Gostinitsa
179,Asansol,IN,77.67,light rain,23.6833,86.9833,Hotel Paras
181,Port Hedland,AU,60.85,clear sky,-20.3167,118.5667,The Esplanade Hotel
183,Ponta Do Sol,PT,70.43,clear sky,32.6667,-17.1,Hotel do Campo
184,Hithadhoo,MV,80.73,overcast clouds,-0.6,73.0833,Scoop Guest House
185,Fairbanks,US,63.61,scattered clouds,64.8378,-147.7164,Westmark Fairbanks Hotel & Conference Center
187,Hami,CN,75.02,clear sky,42.8,93.45,Laoyutang Resort
188,Karratha,AU,67.93,clear sky,-20.7377,116.8463,ibis Styles Karratha
190,San Marcos,US,92.53,clear sky,33.1434,-117.1661,Hampton Inn San Marcos
191,Puerto Ayora,EC,68.56,overcast clouds,-0.7393,-90.3518,Finch Bay Galapagos Hotel
192,Wang Saphung,TH,77.02,moderate rain,17.301,101.7685,โรงแรมวังรีสอร์ท
193,Ikom,NG,71.15,overcast clouds,5.9667,8.7063,Ebenezer Beim excellence hotel
194,Susanville,US,93.04,clear sky,40.4163,-120.653,Comfort Inn & Suites
195,Tabuk,PH,79.34,scattered clouds,17.4189,121.4443,Golden Berries Hotel and Convention
197,Saint-Georges,GD,82.08,few clouds,12.0564,-61.7485,Radisson Grenada Beach Resort
198,Gushikawa,JP,87.03,clear sky,26.3544,127.8686,Kirari Guest House
200,Waingapu,ID,79.07,clear sky,-9.6567,120.2641,Pondok Wisata Elim
203,Gizo,SB,83.25,scattered clouds,-8.103,156.8419,Imagination Island
204,Hinganghat,IN,76.59,overcast clouds,20.5667,78.8333,Zambre Villa
205,Methoni,GR,83.21,clear sky,36.8197,21.7049,Methoni Beach Hotel
206,Mocuba,MZ,69.78,clear sky,-16.8392,36.9856,Phama Lodge
207,Marrakesh,MA,87.87,scattered clouds,31.6315,-8.0083,Les Jardins de La Koutoubia
208,Quatre Cocos,MU,71.71,scattered clouds,-20.2078,57.7625,Sunrise Attitude Hotel
214,Hobyo,SO,76.33,overcast clouds,5.3505,48.5268,Halane Hotel and Restaurent
215,Coahuayana,MX,85.28,few clouds,18.7333,-103.6833,El rranchito michuacan de ocampos
216,Maribo,DK,64.94,overcast clouds,54.7766,11.5002,Ebsens Hotel & Restaurant
217,Xunchang,CN,78.87,overcast clouds,28.4543,104.715,Jiabin Inn
221,Haines Junction,CA,64.35,broken clouds,60.7522,-137.5108,Parkside Inn
223,Vila Franca Do Campo,PT,70.21,scattered clouds,37.7167,-25.4333,Pestana Bahia Praia
224,Gulu,UG,63.9,light rain,2.7746,32.299,ACHOLI INN
225,Takaka,NZ,61.75,broken clouds,-40.85,172.8,Golden Bay Motels
226,Manavgat,TR,80.38,clear sky,36.7867,31.4431,Lake & River Side Hotel & Spa
228,Bilma,NE,90.73,few clouds,18.6853,12.9164,Expeditions Ténére voyages
229,Valley City,US,77.52,few clouds,46.9233,-98.0032,AmericInn by Wyndham Valley City Conference Center
230,Istok,XK,71.55,scattered clouds,42.7808,20.4875,Hotel TROFTA
232,Wanxian,CN,89.56,overcast clouds,30.8039,108.3897,7Days Inn Chongqing Shiqiaopu
233,Bosaso,SO,90.95,clear sky,11.2842,49.1816,Red Sea Hotel
234,Cabo San Lucas,MX,89.62,overcast clouds,22.8909,-109.9124,Hotel Tesoro Los Cabos
237,Gemena,CD,68.97,light rain,3.25,19.7667,Hôtel Goshen
239,Sao Filipe,CV,77.43,overcast clouds,14.8961,-24.4956,Hotel Xaguate
240,Whitstable,GB,64.31,few clouds,51.3607,1.0257,Marine Hotel
241,Nicoya,CR,77.7,broken clouds,10.1483,-85.452,Las Cabinas Del Sueño
242,Sparti,GR,79.95,clear sky,37.0733,22.4297,Maniatis Hotel
243,Ayacucho,PE,67.86,clear sky,-13.1583,-74.2239,Hotel Incasol
244,Iquitos,PE,73.44,thunderstorm with light rain,-3.7481,-73.2472,Cortez Malaga Techy Caroly
245,Lorengau,PG,83.17,scattered clouds,-2.0226,147.2712,Lorengau Harbourside Hotel
248,Mayumba,GA,71.08,broken clouds,-3.432,10.6554,LIKWALE LODGE
249,Port Keats,AU,75.96,clear sky,-14.25,129.55,TDC Village (Hundred Man Camp)
250,Mont-Dore,NC,73.38,few clouds,-22.2833,166.5833,GIte
252,Labuhan,ID,76.23,scattered clouds,-6.8844,112.2051,DoubleFAG
253,Jalu,LY,81.66,clear sky,29.0331,21.5482,صاحبة الفخامة
254,Belaya Rechka,RU,70.23,broken clouds,43.4381,43.535,Korona
258,Yellowknife,CA,77.52,smoke,62.456,-114.3525,The Explorer Hotel
259,Abnub,EG,82.62,clear sky,27.2696,31.1511,دوار ال عبد الجواد شرق البلد بابنوب
262,Pemangkat,ID,79.09,overcast clouds,1.1667,108.9667,Hotel Duyung Permai 2
264,Puerto Leguizamo,CO,72.37,broken clouds,-0.1934,-74.7819,la casona de juancho
265,Koudougou,BF,71.35,overcast clouds,12.25,-2.3667,VAREK OCADES
266,San Quintin,MX,73.0,scattered clouds,30.4833,-115.95,Don Eddie's / Hotel - Restaurant
267,Jieshi,CN,83.35,few clouds,22.8134,115.8257,Yuehai Hotel
270,Karonga,MW,70.93,clear sky,-9.9333,33.9333,Sumuka Inn
271,Cururupu,BR,76.28,overcast clouds,-1.8283,-44.8683,POUSADA TRAVÉS'CIA
273,Sakakah,SA,92.77,clear sky,29.9697,40.2064,Fakhamat Al Orjoana Apartment
275,Roald,NO,62.17,broken clouds,62.5833,6.1333,Flem Cabins
277,Berlevag,NO,64.35,broken clouds,70.8578,29.0864,Kvitbrakka
281,Winnemucca,US,87.85,few clouds,40.973,-117.7357,Winners Inn Casino
282,Kavieng,PG,83.93,broken clouds,-2.5744,150.7967,Nusa Island Retreat
283,Faya,SA,64.51,scattered clouds,18.3851,42.4509,املاك خالد الشعشوع
284,Hay River,CA,75.18,broken clouds,60.8156,-115.7999,Ptarmigan Inn
285,Campbell River,CA,82.6,thunderstorm with light rain,50.0163,-125.2446,Anchor Inn & Suites
286,Noumea,NC,73.38,few clouds,-22.2763,166.4572,Hôtel Le Lagon
288,Kirakira,SB,84.18,broken clouds,-10.4544,161.9205,SanBiz Lodge
289,Diffa,NE,75.99,overcast clouds,13.3154,12.6113,ProDAF/Diffa
290,Torbay,CA,67.57,broken clouds,47.6666,-52.7314,Gallows Cove
291,Pahrump,US,101.44,clear sky,36.2083,-115.9839,Best Western Pahrump Oasis
292,Sorong,ID,78.96,scattered clouds,-0.8833,131.25,Waigo Splash Hotel
293,Katsuura,JP,78.82,overcast clouds,35.1333,140.3,Katsuura Hotel Mikazuki
294,Mitsamiouli,KM,74.62,light rain,-11.3847,43.2844,Foyer ADM
295,San Andres,CO,84.22,scattered clouds,12.5847,-81.7006,Hotel Arena Blanca
296,Requena,ES,65.79,clear sky,39.4883,-1.1004,Hotel Avenida
297,Martapura,ID,75.29,few clouds,-3.4167,114.85,Montana Hotel Syariah
300,Misratah,LY,82.26,clear sky,32.3754,15.0925,Almasa Hotel
302,Lodwar,KE,83.16,overcast clouds,3.1191,35.5973,Solmar Gracious Hotel
303,Beyneu,KZ,70.41,broken clouds,45.3167,55.2,NUR
304,Kieta,PG,84.87,clear sky,-6.2167,155.6333,Uruna Bay Retreat
305,Vila Velha,BR,67.95,overcast clouds,-20.3297,-40.2925,Hotel Vitória Palace
306,Rock Sound,BS,84.49,few clouds,24.9,-76.2,Pink Corral Bay Property
307,Olinda,BR,74.93,overcast clouds,-8.0089,-34.8553,Flat Quatro Rodas Olinda
308,Lar,IN,79.79,overcast clouds,26.2039,83.9717,Ovaiskarni ward Lar
309,Nizwa,OM,88.02,scattered clouds,22.9333,57.5333,Orient Apartments
311,Shahreza,IR,67.64,clear sky,32.0339,51.8794,خوابگاه
313,Elk City,US,93.18,clear sky,35.412,-99.4043,Hampton Inn & Suites Elk City
314,Mikhaylovka,RU,64.78,overcast clouds,50.06,43.2379,5 Komnat
315,Southampton,GB,61.02,clear sky,50.904,-1.4043,Leonardo Royal Southampton Grand Harbour
316,Senador Jose Porfirio,BR,81.88,broken clouds,-2.5908,-51.9542,Pousada Novo Horizonte
318,Naze,JP,85.12,overcast clouds,28.3667,129.4833,Shishime Hotel
319,Mareeba,AU,72.48,clear sky,-17.0,145.4333,Trinity Plains Tourist Park
320,Andrushivka,UA,61.0,broken clouds,50.0229,29.0202,Клопарня
321,Pisco,PE,60.85,few clouds,-13.7,-76.2167,Hotel San Isidro Oficial
322,Wete,TZ,70.54,clear sky,-5.0559,39.7294,Sharook Riviera Grand Lodge
324,Bairiki,KI,80.49,clear sky,1.3292,172.9752,Tarawa Boutique Hotel
325,Mount Isa,AU,62.37,clear sky,-20.7333,139.5,ibis Styles Mt Isa Verona
327,Trnava,SK,69.58,overcast clouds,48.3774,17.5872,Hotel EMPIRE
331,Galle,LK,78.06,overcast clouds,6.0367,80.217,Amangalla
333,Karoi,ZW,63.88,clear sky,-16.8099,29.6925,Chikangwe Guest houses
336,Kishtwar,IN,67.15,broken clouds,33.3167,75.7667,Heritage Bagh by Himalayan Musk
338,Atherton,GB,60.35,few clouds,53.5237,-2.4935,The Mercury Motel
339,Atambua,ID,74.35,clear sky,-9.1061,124.8925,Kost Alfa Flat
340,La Ronge,CA,82.62,few clouds,55.1001,-105.2842,Northland Motor Hotel
341,Cayenne,GF,78.84,clear sky,4.9333,-52.3333,Hôtel Le Dronmi
342,Kerema,PG,77.63,overcast clouds,-7.9631,145.7785,Frena Lodge
343,Benjamin Hill,MX,76.33,overcast clouds,30.1667,-111.1,Hotel Benjamín Hill
346,Delijan,IR,77.52,scattered clouds,33.9905,50.6838,ایزوگام آسیاگستر
347,Mandalgovi,MN,63.52,clear sky,45.7625,106.2708,В.Ганбат
348,Ruwi,OM,89.29,broken clouds,23.5996,58.5507,Al Falaj Hotel
349,Yarmouth,US,78.91,clear sky,41.7057,-70.2286,Blue Rock Resort
351,Saint-Paul,RE,69.89,few clouds,-21.0096,55.2707,Boucan Canot
352,El Sauzal,MX,73.42,few clouds,31.9,-116.6833,Hotel Las Rosas & Spa
353,Dakar,SN,80.73,scattered clouds,14.6937,-17.4441,Novotel Dakar
359,Amargosa,BR,61.75,scattered clouds,-13.0303,-39.6047,Hotel Amargosa
360,Mezen,RU,61.54,clear sky,65.8522,44.24,Gostevoy Dom Everest
361,Fereydun Kenar,IR,79.99,clear sky,36.6864,52.5225,Khezer Shahr Tourist Hotel
363,Hutchinson,US,91.35,scattered clouds,38.0608,-97.9298,Hampton Inn Hutchinson
364,Gijon,ES,66.99,few clouds,43.5357,-5.6615,Hotel Norte
365,Antequera,ES,71.46,clear sky,37.0194,-4.5612,Convento de la Magdalena
367,Ugoofaaru,MV,81.48,overcast clouds,5.6667,73.0,Ungoofaaru Inn
368,Thompson,CA,78.96,few clouds,55.7435,-97.8558,Burntwood Hotel
371,Tautira,PF,76.98,overcast clouds,-17.7333,-149.15,Pension Oaoa
373,Saint-Francois,FR,63.84,broken clouds,46.4154,3.9054,Manoir Du Bonheur
376,Riohacha,CO,86.11,clear sky,11.5444,-72.9072,Hotel Taroa
377,Nongan,CN,64.24,clear sky,44.382,125.1685,Quanhu Resort
378,Atar,MR,82.92,light rain,20.5169,-13.0499,Oumou Elghoura
379,Fare,PF,78.87,overcast clouds,-16.7,-151.0167,Maitai Lapita Village Huahine
383,Bolgatanga,GH,71.08,overcast clouds,10.7856,-0.8514,Mama's Place
385,Bandarbeyla,SO,76.62,broken clouds,9.4942,50.8122,JABIR HOTEL
386,Ardakan,IR,78.49,clear sky,32.31,54.0175,Ardakan Hotel
387,Nhulunbuy,AU,81.21,few clouds,-12.2333,136.7667,East Arnhem Real Estate
389,Isla Mujeres,MX,86.16,scattered clouds,21.2311,-86.731,Hotel La Joya Isla Mujeres
390,Hualmay,PE,61.83,clear sky,-11.0964,-77.6139,Hotel Villa Kitzia Huacho
391,Hervey Bay,AU,64.9,clear sky,-25.2986,152.8535,Shelly Bay Resort
392,Sinnamary,GF,80.69,scattered clouds,5.3833,-52.95,ALETHEIA Appartement Sinnamary
393,Victoria,HK,83.32,overcast clouds,22.2855,114.1577,Mini Central
394,Kilifi,KE,71.73,clear sky,-3.6305,39.8499,Baobab Sea Lodge-Kilifi
396,Olkusz,PL,70.59,overcast clouds,50.2813,19.565,Hotel Victoria
397,Steamboat Springs,US,73.0,clear sky,40.485,-106.8317,Steamboat Grand
398,Marawi,PH,74.77,broken clouds,7.9986,124.2928,Derogongan Residence
399,Margate,GB,62.69,scattered clouds,51.3813,1.3862,Premier Inn Margate hotel
400,Dekernes,EG,72.34,clear sky,31.0876,31.595,زكريا عبد الفتاح سليم
401,Jiaxing,CN,85.98,overcast clouds,30.7522,120.75,嘉兴富悦大酒店
402,Amli,IN,75.76,overcast clouds,20.2833,73.0167,Hotel Soubhagya Inn
405,Westbury,US,83.05,clear sky,40.7557,-73.5876,Hilton Garden Inn Westbury
406,Seoul,KR,83.59,mist,37.5683,126.9778,LOTTE HOTEL SEOUL
408,Tehachapi,US,98.33,clear sky,35.1322,-118.449,"Holiday Inn Express & Suites Tehachapi Hwy 58/Mill St., an IHG Hotel"
409,Port-Gentil,GA,75.16,scattered clouds,-0.7193,8.7815,Fengshui Residence
410,Kutum,SD,68.47,light rain,14.2,24.6667,Dibbo areaمنطقة دبو
412,Basco,PH,84.52,clear sky,20.4487,121.9702,Nathaniel's Lodge
413,Ketchikan,US,70.27,clear sky,55.3422,-131.6461,Snow's Cove Lodge
414,Ilukste,LV,61.23,broken clouds,55.9775,26.2966,"Glenda , viesu nams"
417,Berezovka,BY,60.84,broken clouds,53.7214,25.4993,Nad Nemanom Usad'ba
418,Keuruu,FI,71.78,overcast clouds,62.2667,24.7,Hostelli Nonna
419,Hamirpur,IN,82.4,overcast clouds,25.95,80.15,Bundalkhand kurara transport company
421,Pringsewu,ID,74.62,overcast clouds,-5.3582,104.9744,Urban Style by Front One
422,Sakaide,JP,86.54,broken clouds,34.3167,133.85,HOTEL MYTH-W （ホテル マイス ダブリュー）
424,Puerto Del Rosario,ES,73.15,clear sky,28.5004,-13.8627,Hotel JM Puerto del Rosario
425,Kahului,US,89.62,few clouds,20.8947,-156.47,Maui Seaside Hotel
426,Saint Anthony,US,72.93,clear sky,45.0205,-93.218,Holiday Inn Express Roseville-St. Paul
429,Half Moon Bay,US,86.88,mist,37.4636,-122.4286,"The Ritz-Carlton, Half Moon Bay"
430,Kapit,MY,75.79,broken clouds,2.0167,112.9333,Hotel Meligai Kapit
432,Kalmunai,LK,78.69,overcast clouds,7.4167,81.8167,VS Villa
434,Ahipara,NZ,63.19,overcast clouds,-35.1667,173.1667,Ahipara Holiday Park
435,Nanakuli,US,87.75,scattered clouds,21.3906,-158.1547,Camp Pālehua
436,Rio De Janeiro,BR,65.95,overcast clouds,-22.9028,-43.2075,Hotel cruz de ouro
437,Xining,CN,60.03,scattered clouds,36.6167,101.7667,Super Leisure Hotel
438,Palu,ID,79.38,scattered clouds,-0.8917,119.8707,Hotel Santika Palu
441,Bundaberg,AU,68.22,clear sky,-24.85,152.35,Takalvan Motel
443,Banda Aceh,ID,80.01,overcast clouds,5.5577,95.3222,OYO 884 Rumoh PMI Hotel
444,Cockburn Town,TC,84.16,scattered clouds,21.4612,-71.1419,Osprey Beach Hotel
445,Suoyarvi,RU,62.98,clear sky,62.0833,32.35,Mini-Hotel Comfort
446,Carutapera,BR,79.92,broken clouds,-1.195,-46.02,Lidera
447,Tecoanapa,MX,82.29,overcast clouds,16.5167,-98.75,Hotel Manglares
448,Pedernales,DO,84.38,few clouds,18.0384,-71.744,Hotel Costa Marina
450,Alenquer,BR,84.36,broken clouds,-1.9417,-54.7383,Detinha Hotel
451,Muli,MV,81.3,overcast clouds,2.9167,73.5667,Medhufushi Island Resort
452,Muros,ES,66.83,clear sky,42.7762,-9.0603,Apartment Av. Castelao
453,Coos Bay,US,72.32,overcast clouds,43.3665,-124.2179,Best Western Holiday Hotel
455,Benguela,AO,68.67,overcast clouds,-12.5763,13.4055,Hotel Praia Morena
456,Phetchaburi,TH,76.89,overcast clouds,12.9667,99.5833,บ้านไร่ ท้ายเขื่อน แคมป์วิว เขื่อนแก่งกระจาน
458,Luau,AO,65.82,clear sky,-10.7073,22.2247,Kimbo Hotel
459,Rodnykove,UA,68.13,clear sky,45.043,33.9541,otel Space
460,Kimbe,PG,84.42,broken clouds,-5.5502,150.1429,Kimbe Bay Hotel
461,Pilani,IN,84.36,overcast clouds,28.3684,75.6041,Hotel Poornima Lodge
462,Uromi,NG,68.38,overcast clouds,6.7,6.3333,Royal Motel
463,Carlagan,PH,82.85,broken clouds,14.975,122.0456,Cabatagan Island
465,Wadi Musa,JO,70.59,clear sky,30.3222,35.4793,Petra Palace Hotel
466,Fort Nelson,CA,83.79,few clouds,58.8053,-122.7002,The Fort Nelson Hotel
468,Pokaran,IN,80.26,broken clouds,26.9167,71.9167,Motel Pokaran - RTDC
469,Matagami,CA,71.71,overcast clouds,49.7502,-77.6328,Motel Le Caribou
470,Bani,DO,81.86,clear sky,18.2833,-70.3333,Hospedaje Henriquez
474,Caravelas,BR,71.44,clear sky,-17.7125,-39.2481,Pousada dos Navegantes
475,Yarada,IN,77.32,mist,17.65,83.2667,Yarada Jungle Beach Resorts
476,Majene,ID,78.98,scattered clouds,-3.5403,118.9707,Kost Putri RABBANI
477,Emerald,AU,65.34,scattered clouds,-23.5333,148.1667,The Irish Village
478,Daru,PG,77.54,overcast clouds,-9.0763,143.2092,Daru Lodge
479,San Cristobal,VE,78.98,clear sky,7.7669,-72.225,Pirineos
480,Kilindoni,TZ,74.66,clear sky,-7.9139,39.6668,Bustani B&B
483,Riyadh,SA,89.74,clear sky,24.6877,46.7219,"InterContinental Riyadh, an IHG Hotel"
486,Sola,VU,80.22,few clouds,-13.8833,167.55,Leumerus Bungalows
487,Iralaya,HN,81.07,overcast clouds,15.0,-83.2333,Iglesia morava renovada
488,Progreso,MX,84.11,overcast clouds,21.2833,-89.6667,Playa Linda Hotel
491,Eyl,SO,76.75,overcast clouds,7.9803,49.8164,Amiin Hotel
493,Amlame,TG,70.09,light rain,7.4667,0.9,Centre d’Acceuil AMITIE AIFFRES-AMLAME
495,Mweka,CD,73.62,broken clouds,-4.85,21.5667,Guest House Boshab
497,Lampazos De Naranjo,MX,96.35,few clouds,27.0167,-100.5167,Bella Vista
500,Luancheng,CN,71.76,few clouds,37.8792,114.6517,Shell Hebei Shijiazhuang Luancheng Xinyuan Road Hotel
501,Praia Da Vitoria,PT,70.05,few clouds,38.7333,-27.0667,Hotel Branco I
502,Tomatlan,MX,82.04,overcast clouds,19.9333,-105.25,El Salvial
503,Serramanna,IT,76.8,clear sky,39.4244,8.9244,Polly
505,Norman Wells,CA,68.04,smoke,65.282,-126.8329,Heritage Hotel
507,Jibuti,DJ,86.63,scattered clouds,11.5,42.5,Orchid Main Camp Goubet
510,Takanabe,JP,87.69,overcast clouds,32.1333,131.5,Hotel AZ Miyazaki Takanabe
512,Cedar City,US,76.96,scattered clouds,37.6775,-113.0619,Hampton Inn Cedar City
515,Saint-Pierre,RE,66.29,clear sky,-21.3393,55.4781,Alize Plage
518,Mahebourg,MU,71.89,scattered clouds,-20.4081,57.7,Shandrani Beachcomber Resort & Spa
520,Auki,SB,85.86,light rain,-8.7676,160.7034,Auki Motel
521,Santa Isabel Do Rio Negro,BR,75.24,overcast clouds,-0.4139,-65.0192,Hotel GSA
523,Bubaque,GW,79.86,moderate rain,11.2833,-15.8333,"Casa Dora, Bubaque"
524,Tura,IN,74.89,scattered clouds,25.5198,90.2201,Hotel RIKMAN Continental
526,Talara,PE,62.73,overcast clouds,-4.5772,-81.2719,Hostal Oro Negro
527,Kushiro,JP,68.95,scattered clouds,42.975,144.3747,Toyoko Inn Kushiro Jujigai
528,Marsa Matruh,EG,79.0,clear sky,31.3525,27.2453,Beau Site
531,Liverpool,GB,60.75,clear sky,53.4106,-2.9779,Premier Inn Liverpool City Centre (Moorfields) hotel
532,Nha Trang,VN,78.8,overcast clouds,12.25,109.1833,Hanoi Golden Hotel
533,Grants Pass,US,96.48,clear sky,42.439,-123.3284,La Quinta Inn & Suites by Wyndham Grants Pass
536,Hays,US,85.39,broken clouds,30.0502,-98.0336,Sinya on Lone Man Creek
538,Boa Vista,BR,87.78,scattered clouds,2.8197,-60.6733,Aipana Plaza Hotel
540,Vaitape,PF,79.02,overcast clouds,-16.5167,-151.75,Conrad Bora Bora Nui
543,Chushan,CN,79.18,overcast clouds,33.2955,113.6528,Mountain City Hotel
544,Puerto Escondido,MX,82.67,broken clouds,15.85,-97.0667,Aldea del Bazar Hotel and Spa
545,Elat,IL,85.84,clear sky,29.5581,34.9482,Club Hotel Eilat
546,Zhangjiakou,CN,67.86,clear sky,40.81,114.8794,Shell Zhangjiakou City Qiaodong District Ginza Hotel
549,Alta Floresta,BR,80.91,broken clouds,-9.8756,-56.0861,Floresta Amazonica Hotel
550,Winsum,NL,66.18,overcast clouds,53.33,6.5208,Tuinhuis
551,Inirida,CO,74.62,overcast clouds,3.8653,-67.9239,Fuente del Guania Hotel de Lujo
552,Bataszek,HU,69.21,overcast clouds,46.1937,18.7231,Juhász István Vendégháza
554,Huaihua,CN,82.98,broken clouds,27.5494,109.9592,怀化天庆大酒店
555,Fortuna,US,70.09,overcast clouds,40.5982,-124.1573,Super 8 by Wyndham Fortuna
556,Asau,RO,61.72,light rain,46.4333,26.4,Casa Mika Ciobanus
557,Kaeo,NZ,66.33,overcast clouds,-35.1,173.7833,Bushido Lodge
560,Wahiawa,US,83.77,few clouds,21.5028,-158.0236,The Inn At Schofield
561,Uberaba,BR,63.18,broken clouds,-19.7483,-47.9319,Tamareiras Park Hotel
564,Isangel,VU,80.71,broken clouds,-19.55,169.2667,Tanna Lodge
565,Kouroussa,GN,72.84,broken clouds,10.65,-9.8833,Hotel Tando Plus
567,Changqing,CN,76.1,broken clouds,36.5575,116.7272,Hanting Hotel Jinan Changqing West Jingshi Road
568,Sabha,LY,86.18,clear sky,27.0377,14.4283,محطة ام الارانب -سبها مواصلات
569,Dharchula,IN,71.83,overcast clouds,29.85,80.5333,Mahara Hotel
570,Aksu,CN,72.09,clear sky,41.1231,80.2644,Pudong Holiday Hotel
572,Gold Coast,AU,70.18,clear sky,-28.0,153.4333,Mantra Towers of Chevron Surfers Paradise
573,San Jose,US,92.59,clear sky,37.3394,-121.895,The Westin San Jose
574,San Rafael Del Sur,NI,86.97,overcast clouds,11.8485,-86.4384,Hospedaje El Chino
575,Chapais,CA,76.78,scattered clouds,49.7834,-74.8492,Hôtel Opémiska
577,Samarai,PG,78.87,overcast clouds,-10.6167,150.6667,Nuli Sapi
579,Ballina,AU,64.78,few clouds,-28.8667,153.5667,Ramada Hotel & Suites by Wyndham Ballina Byron
580,Fukue,JP,86.36,scattered clouds,32.6881,128.8419,Goto Guesthouse Utojuku & SA Car Rental
581,Maarianhamina,AX,71.46,clear sky,60.0973,19.9348,Park Alandia Hotel
582,Pianco,BR,73.31,clear sky,-7.1981,-37.9292,Via hotel
583,Bathsheba,BB,79.41,few clouds,13.2167,-59.5167,Atlantis Hotel
584,Chambishi,ZM,65.17,clear sky,-12.6325,28.0537,Musonda Estate
586,Whitehorse,CA,71.02,scattered clouds,60.7161,-135.0538,The Sternwheeler Hotel & Conference Centre
588,Bhander,IN,82.08,overcast clouds,25.7333,78.75,Rahul namdev LiC
589,Minot,US,75.79,broken clouds,48.2325,-101.2963,Noble Inn
590,Lata,PT,67.71,clear sky,40.1629,-8.3327,Casa Maquia
591,Eganville,CA,71.51,broken clouds,45.5334,-77.0994,Egan Inn
592,Sao Gabriel Da Cachoeira,BR,74.28,overcast clouds,-0.1303,-67.0892,Alarne - Área De Lazer Do Alto Rio Negro
594,Rohnert Park,US,102.97,clear sky,38.3396,-122.7011,DoubleTree by Hilton Hotel Sonoma Wine Country
595,Grande-Synthe,FR,64.06,broken clouds,51.0154,2.2998,Première Classe
596,Rumonge,BI,75.16,few clouds,-3.9736,29.4386,Kwetu Guest House
597,Zeya,RU,63.21,scattered clouds,53.75,127.2667,Kapital Inn
598,Ipixuna,BR,78.58,broken clouds,-1.7625,-48.8043,Chalé do Mato
600,Bowen,AU,69.04,clear sky,-20.0167,148.2333,Castle Motor Lodge Motel
603,Linjiang,CN,66.94,clear sky,41.8069,126.9078,格林豪泰
605,Kpandae,GH,70.36,light rain,8.4689,-0.0113,Catholic Guest House
606,Primorsk,UA,70.23,broken clouds,46.7348,36.3443,Relax
607,Port Macquarie,AU,61.9,clear sky,-31.4333,152.9167,Rydges Port Macquarie
608,Panzhihua,CN,71.46,broken clouds,26.5851,101.7128,Electric Power Hotel
609,Songjianghe,CN,61.18,broken clouds,42.1859,127.479,Sijisheng Fashion Guest House
610,Lac Du Bonnet,CA,73.89,scattered clouds,50.2536,-96.0612,Drifter's Inn
611,Polson,US,95.49,broken clouds,47.6936,-114.1632,Americas Best Value Port Polson Inn
612,Antalaha,MG,66.27,light rain,-14.9003,50.2788,Hotel Vitasoa
613,Saint Stephen,GB,62.87,broken clouds,50.3333,-4.9,4 stepaside corner
614,Jatiroto,ID,72.25,broken clouds,-7.8833,111.1167,Mushola Al Huda
615,Hambantota,LK,78.53,overcast clouds,6.1241,81.1185,Bungalow 63
616,Dingle,PH,80.2,scattered clouds,10.9995,122.6711,SEGAYA PROPERTY
617,Corrente,BR,78.12,overcast clouds,-3.7367,-43.3394,Chapadinhense Hotel
618,Aldama,MX,86.79,few clouds,22.9167,-98.0667,CASA CANYE
619,Coyaima,CO,82.85,overcast clouds,3.7994,-75.1947,El Mirador del Triángulo
620,Dicabisagan,PH,82.72,broken clouds,17.0818,122.4157,Nancy Montanes Bernardo
623,Gallup,US,68.02,overcast clouds,35.5281,-108.7426,Quality Inn & Suites Gallup I-40 Exit 20
626,Nabire,ID,77.2,overcast clouds,-3.3667,135.4833,Hotel Nusantara I
627,Mao,ES,72.16,clear sky,39.8885,4.2658,ARTIEM Capri
628,Muisne,EC,74.05,broken clouds,0.6,-80.0333,Quinta Samay
629,Svetlyy,RU,71.96,overcast clouds,54.675,20.1347,"Gostinitsa-Kafe, Alena"
630,Loandjili,CG,70.38,broken clouds,-4.7561,11.8578,Résidence ARCHANGE
631,Dali,CN,65.86,light rain,25.7,100.1833,Dali Travelling With Hostel
632,Korla,CN,75.49,clear sky,41.7597,86.1469,Gulisitan Hotel
634,Chute-Aux-Outardes,CA,67.98,clear sky,49.1168,-68.399,Camp St-Paul Gite Plein-Air
635,Sao Jose Da Coroa Grande,BR,72.91,clear sky,-8.8978,-35.1478,Crôa Mares Hotel
636,Wolgast,DE,68.27,overcast clouds,54.05,13.7667,Zum Alten Schweden
637,Beihai,CN,81.91,few clouds,21.4833,109.1,21 Degree Hostel
639,Maragogi,BR,72.64,clear sky,-9.0122,-35.2225,Salinas do Maragogi All Inclusive Resort
640,Le Port,RE,69.76,few clouds,-20.9373,55.2919,KORBEY D'OR OUEST
642,Houston,US,82.33,scattered clouds,29.7633,-95.3633,"Hotel ICON, Autograph Collection"
643,Muborak,UZ,75.79,clear sky,39.2553,65.1528,Muborak temiryoʻl vakzali
646,Kisangani,CD,69.98,overcast clouds,0.5167,25.2,Grand Ramela Hotel
647,Perbaungan,ID,75.31,overcast clouds,3.5679,98.956,Bendang Lama
648,Beidao,CN,74.44,broken clouds,34.5686,105.8933,Shell Tianshui Maiji District Erma Road Walking Street Hotel
649,Independencia,BR,83.48,broken clouds,-5.3964,-40.3086,Pousada Santa Cruz
651,Xai-Xai,MZ,64.9,overcast clouds,-25.0519,33.6442,Complexo da Familia
652,Luzhou,CN,83.89,overcast clouds,28.8724,105.4405,Shijichun Hotel
653,Conceicao Da Barra,BR,71.19,clear sky,-18.5933,-39.7322,Cricaré Praia Hotel
654,La Roche-Sur-Yon,FR,66.47,overcast clouds,46.6667,-1.4333,"The Originals City, Hôtel Napoléon, La Roche-sur-Yon (Inter-Hotel)"
655,Bull Savanna,JM,80.26,scattered clouds,17.8868,-77.5902,Big Red's
658,Kasulu,TZ,68.77,few clouds,-4.5767,30.1025,Nazaret lodge
659,Celestun,MX,80.98,overcast clouds,20.8667,-90.4,Posada Lilia
663,San-Pedro,CI,75.06,overcast clouds,4.7485,-6.6363,Hotel Maria
664,Usagara,TZ,68.74,scattered clouds,-2.6833,33.0,Mishamo
665,Kashan,IR,74.79,clear sky,33.9831,51.4364,Manouchehri Traditional House
667,Carpinteria,US,102.34,clear sky,34.3989,-119.5185,"Holiday Inn Express & Suites Carpinteria, an IHG Hotel"
668,Normal,US,79.92,scattered clouds,40.5142,-88.9906,"Holiday Inn Express & Suites Bloomington - Normal, an IHG Hotel"
669,Casablanca,MA,77.32,broken clouds,33.5928,-7.6192,فندق البيت المغربي كازبلانكا
672,Yairipok,IN,69.4,scattered clouds,24.6667,94.0667,Ningthounai
674,Basoko,CD,68.86,light rain,1.2391,23.616,Jackyna Hotel
675,Port-Cartier,CA,73.62,broken clouds,50.0334,-66.8654,Le Q'Artier
676,Wewak,PG,79.68,overcast clouds,-3.5534,143.6268,In Wewak Boutique Hotel
677,Paidha,UG,60.51,light rain,2.4167,30.9855,OPIPAAF (OTHUMBA PITHUA PALWONGA )
678,Tigil,RU,70.38,overcast clouds,57.8,158.6667,Tigil'
679,Malakal,SS,69.3,overcast clouds,9.5334,31.6605,Nile Palace Hotel
680,Takoradi,GH,74.57,overcast clouds,4.8845,-1.7554,Raybow International Hotel
682,Buraydah,SA,90.05,scattered clouds,26.326,43.975,Mövenpick Qassim
684,Jiuquan,CN,75.96,overcast clouds,39.7432,98.5174,Jiuquan Hotel
685,Itarema,BR,77.77,scattered clouds,-2.9248,-39.9167,"Sea Lounge! Bar, Club & Restaurant"
686,Ambulu,ID,75.49,scattered clouds,-8.345,113.6058,Hotel Ambulu Jember
688,George Town,MY,80.89,few clouds,5.4112,100.3354,Cititel Penang
689,Dangara,IN,84.16,broken clouds,29.6799,75.8931,Mirchi Hotel & Restaurant Tohana
690,Columbus,US,81.77,clear sky,39.9612,-82.9988,DoubleTree Suites by Hilton Hotel Columbus Downtown
692,Russell,US,81.01,overcast clouds,32.3502,-85.1999,Macs
693,Lethem,GY,77.88,light rain,3.3803,-59.7968,Savannah Inn
694,Svetlogorsk,BY,61.12,scattered clouds,52.6333,29.7333,Hotel Svetlogorsk JBIK
695,Antsohihy,MG,66.56,clear sky,-14.8796,47.9875,Hotel de Ville
697,Kemijarvi,FI,63.14,scattered clouds,66.7131,27.4306,Hotelli Kemijärvi
699,Port Blair,IN,81.91,overcast clouds,11.6667,92.75,"Welcomhotel By ITC Hotels, Bay Island, Port Blair"
700,Lingao,CN,79.79,overcast clouds,19.9103,109.6859,Lingao Ditai Inn
701,Mersing,MY,77.67,broken clouds,2.4312,103.8405,Timotel Hotel
704,Seminole,US,87.89,thunderstorm with heavy rain,28.7086,-81.2081,The Oviedo Lodge Motel
